{
"type": "FeatureCollection",
"name": "Quebec National Parks",
"crs": { "type": "name", "properties": { "name": "urn:ogc:def:crs:OGC:1.3:CRS84" } },
"features": [
{ "type": "Feature", "properties": { "Name": "Parc national de la Gaspésie", "tessellate": -1, "extrude": 0, "visibility": -1 }, "geometry": { "type": "Point", "coordinates": [ -66.122427, 48.94742, 0.0 ] } },
{ "type": "Feature", "properties": { "Name": "Parc National du Bic", "tessellate": -1, "extrude": 0, "visibility": -1 }, "geometry": { "type": "Point", "coordinates": [ -68.8049285, 48.3547774, 0.0 ] } },
{ "type": "Feature", "properties": { "Name": "Parc national du Lac-Témiscouata", "tessellate": -1, "extrude": 0, "visibility": -1 }, "geometry": { "type": "Point", "coordinates": [ -68.8479123, 47.6968847, 0.0 ] } },
{ "type": "Feature", "properties": { "Name": "Parc national de Frontenac", "tessellate": -1, "extrude": 0, "visibility": -1 }, "geometry": { "type": "Point", "coordinates": [ -71.162734, 45.840455, 0.0 ] } },
{ "type": "Feature", "properties": { "Name": "Parc national du Mont-Mégantic", "tessellate": -1, "extrude": 0, "visibility": -1 }, "geometry": { "type": "Point", "coordinates": [ -71.125942, 45.423286, 0.0 ] } },
{ "type": "Feature", "properties": { "Name": "Parc national du Mont-Orford", "tessellate": -1, "extrude": 0, "visibility": -1 }, "geometry": { "type": "Point", "coordinates": [ -72.1881633, 45.3227754, 0.0 ] } },
{ "type": "Feature", "properties": { "Name": "Parc national de la Yamaska", "tessellate": -1, "extrude": 0, "visibility": -1 }, "geometry": { "type": "Point", "coordinates": [ -72.6160384, 45.4282166, 0.0 ] } },
{ "type": "Feature", "properties": { "Name": "Parc national des Îles-de-Boucherville", "tessellate": -1, "extrude": 0, "visibility": -1 }, "geometry": { "type": "Point", "coordinates": [ -73.4685313, 45.5986853, 0.0 ] } },
{ "type": "Feature", "properties": { "Name": "Parc national d'Oka", "tessellate": -1, "extrude": 0, "visibility": -1 }, "geometry": { "type": "Point", "coordinates": [ -74.060484, 45.473934, 0.0 ] } },
{ "type": "Feature", "properties": { "Name": "Parc national de Plaisance", "tessellate": -1, "extrude": 0, "visibility": -1 }, "geometry": { "type": "Point", "coordinates": [ -75.108567, 45.598935, 0.0 ] } },
{ "type": "Feature", "properties": { "Name": "Parc national du Mont-Tremblant", "tessellate": -1, "extrude": 0, "visibility": -1 }, "geometry": { "type": "Point", "coordinates": [ -74.5100982, 46.2611713, 0.0 ] } },
{ "type": "Feature", "properties": { "Name": "Parc national de la Jacques-Cartier", "tessellate": -1, "extrude": 0, "visibility": -1 }, "geometry": { "type": "Point", "coordinates": [ -71.3695919, 47.1754475, 0.0 ] } },
{ "type": "Feature", "properties": { "Name": "Parc national des Grands-Jardins", "tessellate": -1, "extrude": 0, "visibility": -1 }, "geometry": { "type": "Point", "coordinates": [ -70.2191682, 47.6903272, 0.0 ] } },
{ "type": "Feature", "properties": { "Name": "Parc national des Hautes-Gorges-de-la-Rivière-Malbaie", "tessellate": -1, "extrude": 0, "visibility": -1 }, "geometry": { "type": "Point", "coordinates": [ -70.4294954, 47.8545264, 0.0 ] } },
{ "type": "Feature", "properties": { "Name": "Parc national du Fjord-du-Saguenay", "tessellate": -1, "extrude": 0, "visibility": -1 }, "geometry": { "type": "Point", "coordinates": [ -70.335311, 48.300742, 0.0 ] } },
{ "type": "Feature", "properties": { "Name": "Parc national de la Pointe-Taillon", "tessellate": -1, "extrude": 0, "visibility": -1 }, "geometry": { "type": "Point", "coordinates": [ -71.873139, 48.678028, 0.0 ] } },
{ "type": "Feature", "properties": { "Name": "Parc national d'Aiguebelle", "tessellate": -1, "extrude": 0, "visibility": -1 }, "geometry": { "type": "Point", "coordinates": [ -78.7489753, 48.5104446, 0.0 ] } }
]
}
